{
"type": "FeatureCollection",
"name": "potholereports",
"crs": { "type": "name", "properties": { "name": "urn:ogc:def:crs:OGC:1.3:CRS84" } },
"features": [
{ "type": "Feature", "properties": { "id": 11, "severity": "Medium", "description": "In the middle of the road, just Infront of Magunas Supermarket.", "reporter_name": "Victor", "created_at": "2026-04-15T09:36:02.291+03:00", "status": "Reported", "sub_county_id": 234, "sub_county_name": "Ruaraka", "image": "potholes/17762348578133735005355216615201.jpg" }, "geometry": { "type": "Point", "coordinates": [ 36.8733652, -1.2487943 ] } },
{ "type": "Feature", "properties": { "id": 12, "severity": "Low", "description": "Along the sidewalk ", "reporter_name": "Victor", "created_at": "2026-04-15T09:55:39.584+03:00", "status": "Reported", "sub_county_id": 234, "sub_county_name": "Ruaraka", "image": "potholes/1776235938839840606411789031676.jpg" }, "geometry": { "type": "Point", "coordinates": [ 36.8614971, -1.2498814 ] } },
{ "type": "Feature", "properties": { "id": 13, "severity": "Low", "description": "Along the walkway ", "reporter_name": "Victor", "created_at": "2026-04-15T10:00:38.324+03:00", "status": "Reported", "sub_county_id": 234, "sub_county_name": "Ruaraka", "image": "potholes/1776236348718503085086813964998.jpg" }, "geometry": { "type": "Point", "coordinates": [ 36.8616771, -1.2497915 ] } },
{ "type": "Feature", "properties": { "id": 14, "severity": "Low", "description": "Along the walkway ", "reporter_name": "Victor", "created_at": "2026-04-15T10:08:27.430+03:00", "status": "Reported", "sub_county_id": 234, "sub_county_name": "Ruaraka", "image": "potholes/1776236842274516287528593312330.jpg" }, "geometry": { "type": "Point", "coordinates": [ 36.8563625, -1.2564818 ] } },
{ "type": "Feature", "properties": { "id": 3, "severity": "Low", "description": "shallow ", "reporter_name": "Victor", "created_at": "2026-03-04T08:30:40.813+03:00", "status": "Reported", "sub_county_id": 234, "sub_county_name": "Ruaraka", "image": "potholes/download_vBALQ2t.jpeg" }, "geometry": { "type": "Point", "coordinates": [ 36.874313165281173, -1.249330651833741 ] } },
{ "type": "Feature", "properties": { "id": 21, "severity": "Medium", "description": "", "reporter_name": "Joseph", "created_at": "2026-04-18T11:50:03.716+03:00", "status": "Reported", "sub_county_id": 146, "sub_county_name": "Langata", "image": "potholes/image.jpg" }, "geometry": { "type": "Point", "coordinates": [ 36.824668460604968, -1.321537055620319 ] } },
{ "type": "Feature", "properties": { "id": 22, "severity": "Low", "description": "FiveStar Road", "reporter_name": "Joseph Wandera", "created_at": "2026-04-18T11:56:12.850+03:00", "status": "Reported", "sub_county_id": 146, "sub_county_name": "Langata", "image": "potholes/image_pqhpK47.jpg" }, "geometry": { "type": "Point", "coordinates": [ 36.823601346812389, -1.320496514100648 ] } },
{ "type": "Feature", "properties": { "id": 23, "severity": "Medium", "description": "", "reporter_name": "Joseph Wandera", "created_at": "2026-04-18T12:16:19.613+03:00", "status": "Reported", "sub_county_id": 146, "sub_county_name": "Langata", "image": "potholes/image_958yxg3.jpg" }, "geometry": { "type": "Point", "coordinates": [ 36.823244711932638, -1.319221120502304 ] } },
{ "type": "Feature", "properties": { "id": 24, "severity": "Medium", "description": "Roadside manhole damaged and authorities fail to take responsibility \r\nWater has runoff so much that it has damaged the road to the extent of forming groves ( refer to photo ) ", "reporter_name": "Joseph Wandera", "created_at": "2026-04-18T12:33:41.506+03:00", "status": "Reported", "sub_county_id": 146, "sub_county_name": "Langata", "image": "potholes/image_s1VvkFY.jpg" }, "geometry": { "type": "Point", "coordinates": [ 36.824594962862896, -1.318174776829708 ] } },
{ "type": "Feature", "properties": { "id": 25, "severity": "High", "description": "Siltation together with potholes and blocked sewage \r\nWhole road section has ruined surface ", "reporter_name": "Joseph Wandera", "created_at": "2026-04-18T12:47:28.344+03:00", "status": "Reported", "sub_county_id": 146, "sub_county_name": "Langata", "image": "potholes/image_xH7GsqR.jpg" }, "geometry": { "type": "Point", "coordinates": [ 36.824068734781342, -1.316286907064728 ] } },
{ "type": "Feature", "properties": { "id": 26, "severity": "High", "description": "", "reporter_name": "Joseph Wandera", "created_at": "2026-04-18T12:48:23.252+03:00", "status": "Reported", "sub_county_id": 146, "sub_county_name": "Langata", "image": "potholes/image_ZI11M32.jpg" }, "geometry": { "type": "Point", "coordinates": [ 36.824107791612548, -1.315879673353467 ] } },
{ "type": "Feature", "properties": { "id": 27, "severity": "Medium", "description": "Flooding affecting mobility", "reporter_name": "Joseph Wandera", "created_at": "2026-04-18T12:52:16.943+03:00", "status": "Reported", "sub_county_id": 146, "sub_county_name": "Langata", "image": "potholes/image_EBHYdpH.jpg" }, "geometry": { "type": "Point", "coordinates": [ 36.824793852845431, -1.315641348734736 ] } }
]
}
